City,State,Latitude,Longitude,Sessions
Kurukshetra,Haryana,29.9695,76.8783,225
Jabalpur,Madhya Pradesh,23.1815,79.9864,211
Hisar,Haryana,29.1519,75.7217,209
Raipur,Chhattisgarh,21.2514,81.6296,208
Panipat,Haryana,29.3909,76.9635,207
Ghaziabad,Uttar Pradesh,28.6692,77.4538,205
Jaipur,Rajasthan,26.9124,75.7873,203
Satna,Madhya Pradesh,24.5864,80.8285,203
Bareilly,Uttar Pradesh,28.367,79.4304,202
Coimbatore,Tamil Nadu,11.0168,76.9558,201
